3230096 $GPRMC,085408.20,A,3510.69552199,N,12654.60689692,E,5.69,104.67,280518,,,D*53
3230097 $GPGGA,085408.30,3510.69547251,N,12654.60708080,E,2,07,1.4,47.0,M,19.4,M,4.3,0129*7E
3230197 $GPRMC,085408.30,A,3510.69547251,N,12654.60708080,E,5.86,107.65,280518,,,D*5C
3230197 $GPGGA,085408.40,3510.69543090,N,12654.60726537,E,2,07,1.4,47.0,M,19.4,M,4.4,0129*70
3230296 $GPRMC,085408.40,A,3510.69543090,N,12654.60726537,E,5.42,97.15,280518,,,D*62
3230297 $GPGGA,085408.50,3510.69540534,N,12654.60745433,E,2,07,1.4,47.0,M,19.4,M,4.5,0129*78
3230397 $GPRMC,085408.50,A,3510.69540534,N,12654.60745433,E,5.68,104.71,280518,,,D*5A
3230398 $GPGGA,085408.60,3510.69537129,N,12654.60764013,E,2,07,1.4,47.0,M,19.4,M,4.6,0129*75
3230496 $GPRMC,085408.60,A,3510.69537129,N,12654.60764013,E,5.55,103.45,280518,,,D*5A
3230496 $GPGGA,085408.70,3510.69534344,N,12654.60782494,E,2,07,1.4,47.0,M,19.4,M,4.7,0129*7C
3230596 $GPRMC,085408.70,A,3510.69534344,N,12654.60782494,E,5.29,98.85,280518,,,D*66
3230597 $GPGGA,085408.80,3510.69531774,N,12654.60800786,E,2,07,1.4,47.0,M,19.4,M,4.8,0129*7B
3230696 $GPRMC,085408.80,A,3510.69531774,N,12654.60800786,E,5.43,102.04,280518,,,D*59
3230796 $GPGGA,085408.90,3510.69529114,N,12654.60819260,E,2,07,1.4,47.0,M,19.4,M,4.9,0129*77
3230796 $GPRMC,085408.90,A,3510.69529114,N,12654.60819260,E,5.49,101.63,280518,,,D*5C
3230797 $GPGGA,085409.00,3510.69525971,N,12654.60837481,E,2,07,1.4,47.0,M,19.4,M,5.0,0129*75
3230896 $GPRMC,085409.00,A,3510.69525971,N,12654.60837481,E,5.42,97.67,280518,,,D*67
3230897 $GPGGA,085409.10,3510.69524499,N,12654.60855544,E,2,07,1.4,47.0,M,19.4,M,5.1,0129*73
3230997 $GPRMC,085409.10,A,3510.69524499,N,12654.60855544,E,5.31,93.74,280518,,,D*62
3231095 $GPGGA,085409.20,3510.69523768,N,12654.60873448,E,2,07,1.4,47.0,M,19.4,M,5.2,0129*70
3231095 $GPRMC,085409.20,A,3510.69523768,N,12654.60873448,E,5.51,93.09,280518,,,D*6E
3231096 $GPGGA,085409.30,3510.69522735,N,12654.60892093,E,2,07,1.4,47.0,M,19.4,M,5.3,0129*74
3231175 $GPRMC,085409.30,A,3510.69522735,N,12654.60892093,E,5.36,94.08,280518,,,D*6C
3231196 $GPGGA,085409.40,3510.69522143,N,12654.60909971,E,2,07,1.4,47.0,M,19.4,M,5.4,0129*75
3231296 $GPRMC,085409.40,A,3510.69522143,N,12654.60909971,E,5.50,92.85,280518,,,D*69
3231397 $GPGGA,085409.50,3510.69521828,N,12654.60928040,E,2,07,1.4,47.0,M,19.4,M,5.5,0129*7A
3231397 $GPRMC,085409.50,A,3510.69521828,N,12654.60928040,E,5.50,92.12,280518,,,D*69
3231398 $GPGGA,085409.60,3510.69522184,N,12654.60945992,E,2,07,1.4,47.1,M,19.4,M,5.6,0129*7A
3231497 $GPRMC,085409.60,A,3510.69522184,N,12654.60945992,E,5.24,86.74,280518,,,D*6D
3231498 $GPGGA,085409.70,3510.69522680,N,12654.60963816,E,2,07,1.4,47.1,M,19.4,M,5.7,0129*70
3231596 $GPRMC,085409.70,A,3510.69522680,N,12654.60963816,E,5.46,84.30,280518,,,D*60
3231596 $GPGGA,085409.80,3510.69524203,N,12654.60982073,E,2,07,1.4,47.1,M,19.4,M,5.8,0129*7D
3231696 $GPRMC,085409.80,A,3510.69524203,N,12654.60982073,E,5.54,83.01,280518,,,D*64
3231697 $GPGGA,085409.90,3510.69526161,N,12654.61000305,E,2,07,1.4,47.1,M,19.4,M,5.9,0129*78
3231797 $GPRMC,085409.90,A,3510.69526161,N,12654.61000305,E,5.27,83.92,280518,,,D*6E
3231798 $GPGGA,085410.00,3510.69527794,N,12654.61017814,E,2,07,1.4,47.1,M,19.4,M,6.0,0129*73
3231798 $GPRMC,085410.00,A,3510.69527794,N,12654.61017814,E,5.10,89.10,280518,,,D*6B
3231897 $GPGGA,085410.10,3510.69528434,N,12654.61034719,E,2,07,1.4,47.1,M,19.4,M,6.1,0129*76
3231996 $GPRMC,085410.10,A,3510.69528434,N,12654.61034719,E,5.00,86.72,280518,,,D*65
3231997 $GPGGA,085410.20,3510.69529114,N,12654.61051976,E,2,07,1.4,47.1,M,19.4,M,6.2,0129*74
3232096 $GPRMC,085410.20,A,3510.69529114,N,12654.61051976,E,5.24,84.46,280518,,,D*67
3232197 $GPGGA,085410.30,3510.69530862,N,12654.61069114,E,2,07,1.4,47.1,M,19.4,M,6.3,0129*73
3232197 $GPRMC,085410.30,A,3510.69530862,N,12654.61069114,E,5.20,81.01,280518,,,D*63
3232198 $GPGGA,085410.40,3510.69533162,N,12654.61086426,E,2,07,1.4,47.1,M,19.4,M,6.4,0129*7C
3232296 $GPRMC,085410.40,A,3510.69533162,N,12654.61086426,E,5.02,78.79,280518,,,D*62
3232297 $GPGGA,085410.50,3510.69536458,N,12654.61103253,E,2,07,1.4,47.1,M,19.4,M,6.5,0129*7D
3232396 $GPRMC,085410.50,A,3510.69536458,N,12654.61103253,E,5.06,78.78,280518,,,D*67
3232475 $GPGGA,085410.60,3510.69539128,N,12654.61120595,E,2,07,1.4,47.1,M,19.4,M,6.6,0129*7C
3232475 $GPRMC,085410.60,A,3510.69539128,N,12654.61120595,E,5.29,74.78,280518,,,D*64
3232496 $GPGGA,085410.70,3510.69543039,N,12654.61137374,E,2,07,1.4,47.1,M,19.4,M,6.7,0129*7F
3232595 $GPRMC,085410.70,A,3510.69543039,N,12654.61137374,E,5.00,78.38,280518,,,D*65
3232596 $GPGGA,085410.80,3510.69546500,N,12654.61154198,E,2,07,1.4,47.1,M,19.4,M,6.8,0129*70
3232697 $GPRMC,085410.80,A,3510.69546500,N,12654.61154198,E,5.11,73.79,280518,,,D*6B
3232697 $GPGGA,085410.90,3510.69550274,N,12654.61170831,E,2,07,1.4,47.1,M,19.4,M,6.9,0129*7F
3232797 $GPRMC,085410.90,A,3510.69550274,N,12654.61170831,E,4.97,71.75,280518,,,D*64
3232798 $GPGGA,085411.00,3510.69553809,N,12654.61186795,E,2,07,1.4,47.0,M,19.4,M,7.0,0129*75
3232896 $GPRMC,085411.00,A,3510.69553809,N,12654.61186795,E,4.91,76.61,280518,,,D*63
3232897 $GPGGA,085411.10,3510.69557410,N,12654.61203205,E,2,07,1.4,47.0,M,19.4,M,7.1,0129*77
3232995 $GPRMC,085411.10,A,3510.69557410,N,12654.61203205,E,4.90,75.06,280518,,,D*63
3232995 $GPGGA,085411.20,3510.69561321,N,12654.61219304,E,2,07,1.4,47.1,M,19.4,M,7.2,0129*7D
3233097 $GPRMC,085411.20,A,3510.69561321,N,12654.61219304,E,4.98,75.45,280518,,,D*64
3233098 $GPGGA,085411.30,3510.69564979,N,12654.61235008,E,2,07,1.4,47.0,M,19.4,M,7.3,0129*7F
3233196 $GPRMC,085411.30,A,3510.69564979,N,12654.61235008,E,4.92,73.61,280518,,,D*6C
3233296 $GPGGA,085411.40,3510.69569616,N,12654.61251328,E,2,07,1.4,47.0,M,19.4,M,7.4,0129*77
3233296 $GPRMC,085411.40,A,3510.69569616,N,12654.61251328,E,4.71,75.70,280518,,,D*68
3233297 $GPGGA,085411.50,3510.69573668,N,12654.61266974,E,2,07,1.4,47.0,M,19.4,M,7.5,0129*72
3233396 $GPRMC,085411.50,A,3510.69573668,N,12654.61266974,E,4.96,72.08,280518,,,D*6D
3233397 $GPGGA,085411.60,3510.69578040,N,12654.61282695,E,2,07,1.4,47.0,M,19.4,M,7.6,0129*7F
3233496 $GPRMC,085411.60,A,3510.69578040,N,12654.61282695,E,4.71,72.50,280518,,,D*67
3233596 $GPGGA,085411.70,3510.69582345,N,12654.61298050,E,2,07,1.4,47.0,M,19.4,M,7.7,0129*78
3233596 $GPRMC,085411.70,A,3510.69582345,N,12654.61298050,E,4.83,70.70,280518,,,D*6C
3233597 $GPGGA,085411.80,3510.69587294,N,12654.61313285,E,2,07,1.4,47.1,M,19.4,M,7.8,0129*79
3233696 $GPRMC,085411.80,A,3510.69587294,N,12654.61313285,E,4.60,70.06,280518,,,D*6F
3233697 $GPGGA,085411.90,3510.69592125,N,12654.61328052,E,2,07,1.4,47.1,M,19.4,M,7.9,0129*74
3233796 $GPRMC,085411.90,A,3510.69592125,N,12654.61328052,E,4.64,71.29,280518,,,D*6B
3233896 $GPGGA,085412.00,3510.69597053,N,12654.61343497,E,2,07,1.4,47.1,M,19.4,M,8.0,0129*7D
3233896 $GPRMC,085412.00,A,3510.69597053,N,12654.61343497,E,4.68,74.25,280518,,,D*61
3233897 $GPGGA,085412.10,3510.69600790,N,12654.61358744,E,2,07,1.4,47.0,M,19.4,M,8.1,0129*7E
3233996 $GPRMC,085412.10,A,3510.69600790,N,12654.61358744,E,4.84,70.19,280518,,,D*6B
3233997 $GPGGA,085412.20,3510.69605242,N,12654.61373967,E,2,07,1.4,47.0,M,19.4,M,8.2,0129*77
3234097 $GPRMC,085412.20,A,3510.69605242,N,12654.61373967,E,4.57,72.02,280518,,,D*67
3234097 $GPGGA,085412.30,3510.69609513,N,12654.61388917,E,2,07,1.4,47.0,M,19.4,M,8.3,0129*7B
3234195 $GPRMC,085412.30,A,3510.69609513,N,12654.61388917,E,4.58,74.78,280518,,,D*6E
3234196 $GPGGA,085412.40,3510.69614117,N,12654.61403146,E,2,07,1.4,47.1,M,19.4,M,8.4,0129*7E
3234295 $GPRMC,085412.40,A,3510.69614117,N,12654.61403146,E,4.24,69.99,280518,,,D*65
3234296 $GPGGA,085412.50,3510.69618558,N,12654.61416913,E,2,07,1.4,47.1,M,19.4,M,8.5,0129*71
3234296 $GPRMC,085412.50,A,3510.69618558,N,12654.61416913,E,4.24,73.57,280518,,,D*62
3234397 $GPGGA,085412.60,3510.69622653,N,12654.61430177,E,2,07,1.4,47.1,M,19.4,M,8.6,0129*7E
3234497 $GPRMC,085412.60,A,3510.69622653,N,12654.61430177,E,3.75,69.54,280518,,,D*65
3234498 $GPGGA,085412.70,3510.69625621,N,12654.61442032,E,2,07,1.4,47.1,M,19.4,M,8.7,0129*79
3234597 $GPRMC,085412.70,A,3510.69625621,N,12654.61442032,E,3.47,75.36,280518,,,D*6B
3234696 $GPGGA,085412.80,3510.69627832,N,12654.61453165,E,2,07,1.4,47.0,M,19.4,M,8.8,0129*75
3234696 $GPRMC,085412.80,A,3510.69627832,N,12654.61453165,E,3.20,70.21,280518,,,D*6B
3234697 $GPGGA,085412.90,3510.69631574,N,12654.61463436,E,2,07,1.4,47.0,M,19.4,M,8.9,0129*7D
3234797 $GPRMC,085412.90,A,3510.69631574,N,12654.61463436,E,3.11,61.95,280518,,,D*6F
3234798 $GPGGA,085413.00,3510.69635060,N,12654.61472883,E,2,07,1.4,47.0,M,19.4,M,9.0,0129*7B
3234897 $GPRMC,085413.00,A,3510.69635060,N,12654.61472883,E,3.36,75.92,280518,,,D*66
3234996 $GPGGA,085413.10,3510.69637556,N,12654.61483244,E,2,07,1.4,47.0,M,19.4,M,9.1,0129*76
3234996 $GPRMC,085413.10,A,3510.69637556,N,12654.61483244,E,2.88,88.41,280518,,,D*62
3234997 $GPGGA,085413.20,3510.69639529,N,12654.61492417,E,2,07,1.4,47.0,M,19.4,M,9.2,0129*70
3235096 $GPRMC,085413.20,A,3510.69639529,N,12654.61492417,E,2.50,79.13,280518,,,D*6B
3235097 $GPGGA,085413.30,3510.69642154,N,12654.61500704,E,2,07,1.4,47.0,M,19.4,M,9.3,0129*79
3235196 $GPRMC,085413.30,A,3510.69642154,N,12654.61500704,E,2.56,66.54,280518,,,D*68
3235196 $GPGGA,085413.40,3510.69644818,N,12654.61508491,E,2,07,1.4,47.0,M,19.4,M,9.4,0129*79
3235296 $GPRMC,085413.40,A,3510.69644818,N,12654.61508491,E,2.41,69.02,280518,,,D*65
3235297 $GPGGA,085413.50,3510.69647623,N,12654.61515735,E,2,07,1.4,47.0,M,19.4,M,9.5,0129*7D
3235397 $GPRMC,085413.50,A,3510.69647623,N,12654.61515735,E,2.26,79.23,280518,,,D*63
3235398 $GPGGA,085413.60,3510.69649198,N,12654.61522942,E,2,07,1.4,47.0,M,19.4,M,9.6,0129*7E
3235496 $GPRMC,085413.60,A,3510.69649198,N,12654.61522942,E,1.92,68.88,280518,,,D*6E
3235496 $GPGGA,085413.70,3510.69651413,N,12654.61529098,E,2,07,1.4,47.0,M,19.4,M,9.7,0129*74
3235595 $GPRMC,085413.70,A,3510.69651413,N,12654.61529098,E,1.98,73.24,280518,,,D*63
3235596 $GPGGA,085413.80,3510.69653353,N,12654.61535240,E,2,07,1.4,47.0,M,19.4,M,9.8,0129*7F
3235697 $GPRMC,085413.80,A,3510.69653353,N,12654.61535240,E,2.03,63.52,280518,,,D*66
3235797 $GPGGA,085413.90,3510.69655553,N,12654.61541252,E,2,07,1.4,47.0,M,19.4,M,9.9,0129*7F
3235797 $GPRMC,085413.90,A,3510.69655553,N,12654.61541252,E,1.91,72.68,280518,,,D*66
3235798 $GPGGA,085414.00,3510.69657273,N,12654.61547327,E,2,07,1.4,47.0,M,19.4,M,10.0,0129*42
3235896 $GPRMC,085414.00,A,3510.69657273,N,12654.61547327,E,1.97,65.51,280518,,,D*60
3235897 $GPGGA,085414.10,3510.69659353,N,12654.61553268,E,2,07,1.4,47.0,M,19.4,M,10.1,0129*40
3235996 $GPRMC,085414.10,A,3510.69659353,N,12654.61553268,E,1.80,69.77,280518,,,D*6D
3236096 $GPGGA,085414.20,3510.69661267,N,12654.61558781,E,2,07,1.4,47.0,M,19.4,M,10.2,0129*44
3236096 $GPRMC,085414.20,A,3510.69661267,N,12654.61558781,E,1.59,69.42,280518,,,D*68
3236097 $GPGGA,085414.30,3510.69663216,N,12654.61564159,E,2,07,1.4,47.0,M,19.4,M,10.3,0129*4C
3236196 $GPRMC,085414.30,A,3510.69663216,N,12654.61564159,E,1.83,59.49,280518,,,D*6E
3236197 $GPGGA,085414.40,3510.69665607,N,12654.61569398,E,2,07,1.4,47.0,M,19.4,M,10.4,0129*4C
3236296 $GPRMC,085414.40,A,3510.69665607,N,12654.61569398,E,1.60,67.30,280518,,,D*67
3236396 $GPGGA,085414.50,3510.69667701,N,12654.61574479,E,2,07,1.4,46.9,M,19.4,M,10.5,0129*45
3236396 $GPRMC,085414.50,A,3510.69667701,N,12654.61574479,E,1.81,65.64,280518,,,D*6B
3236397 $GPGGA,085414.60,3510.69669495,N,12654.61580099,E,2,07,1.4,46.9,M,19.4,M,10.6,0129*44
3236497 $GPRMC,085414.60,A,3510.69669495,N,12654.61580099,E,1.75,77.38,280518,,,D*68
3236498 $GPGGA,085414.70,3510.69671264,N,12654.61586283,E,2,07,1.4,46.9,M,19.4,M,10.7,0129*4A
3236597 $GPRMC,085414.70,A,3510.69671264,N,12654.61586283,E,1.78,69.73,280518,,,D*6A
3236697 $GPGGA,085414.80,3510.69673259,N,12654.61592041,E,2,07,1.4,46.9,M,19.4,M,10.8,0129*4F
3236697 $GPRMC,085414.80,A,3510.69673259,N,12654.61592041,E,1.97,66.94,280518,,,D*67
3236698 $GPGGA,085414.90,3510.69675032,N,12654.61598180,E,2,07,1.4,46.9,M,19.4,M,10.9,0129*40
3236797 $GPRMC,085414.90,A,3510.69675032,N,12654.61598180,E,2.21,70.54,280518,,,D*6C
3236798 $GPGGA,085415.00,3510.69677351,N,12654.61604696,E,2,07,1.4,46.9,M,19.4,M,11.0,0129*42
3236896 $GPRMC,085415.00,A,3510.69677351,N,12654.61604696,E,2.31,69.88,280518,,,D*6E
3236896 $GPGGA,085415.10,3510.69679835,N,12654.61611660,E,2,07,1.4,46.9,M,19.4,M,11.1,0129*48
3236996 $GPRMC,085415.10,A,3510.69679835,N,12654.61611660,E,2.14,73.32,280518,,,D*68
3236997 $GPGGA,085415.20,3510.69681603,N,12654.61618843,E,2,07,1.4,46.9,M,19.4,M,11.2,0129*42
3237096 $GPRMC,085415.20,A,3510.69681603,N,12654.61618843,E,2.22,69.25,280518,,,D*69
3237097 $GPGGA,085415.30,3510.69684218,N,12654.61626061,E,2,07,1.4,46.9,M,19.4,M,11.3,0129*4C
3237197 $GPRMC,085415.30,A,3510.69684218,N,12654.61626061,E,2.36,69.01,280518,,,D*65
3237197 $GPGGA,085415.40,3510.69686499,N,12654.61633508,E,2,07,1.4,46.9,M,19.4,M,11.4,0129*4F
3237297 $GPRMC,085415.40,A,3510.69686499,N,12654.61633508,E,2.26,61.81,280518,,,D*60
3237298 $GPGGA,085415.50,3510.69689364,N,12654.61641022,E,2,07,1.4,46.9,M,19.4,M,11.5,0129*4D
3237397 $GPRMC,085415.50,A,3510.69689364,N,12654.61641022,E,2.48,77.71,280518,,,D*63
3237398 $GPGGA,085415.60,3510.69691502,N,12654.61649043,E,2,07,1.4,46.9,M,19.4,M,11.6,0129*4D
3237498 $GPRMC,085415.60,A,3510.69691502,N,12654.61649043,E,2.51,66.22,280518,,,D*6E
3237498 $GPGGA,085415.70,3510.69694479,N,12654.61656960,E,2,07,1.4,46.9,M,19.4,M,11.7,0129*43
3237577 $GPRMC,085415.70,A,3510.69694479,N,12654.61656960,E,2.81,68.78,280518,,,D*6D
3237598 $GPGGA,085415.80,3510.69697714,N,12654.61665472,E,2,07,1.4,46.9,M,19.4,M,11.8,0129*46
3237697 $GPRMC,085415.80,A,3510.69697714,N,12654.61665472,E,2.76,60.51,280518,,,D*6C
3237797 $GPGGA,085415.90,3510.69700488,N,12654.61673198,E,2,07,1.4,46.8,M,19.4,M,11.9,0129*48
3237797 $GPRMC,085415.90,A,3510.69700488,N,12654.61673198,E,2.65,66.07,280518,,,D*65
3237798 $GPGGA,085416.00,3510.69703581,N,12654.61680689,E,2,07,1.4,46.8,M,19.4,M,12.0,0129*48
3237877 $GPRMC,085416.00,A,3510.69703581,N,12654.61680689,E,2.60,63.82,280518,,,D*62
3237897 $GPGGA,085416.10,3510.69706837,N,12654.61688932,E,2,07,1.4,46.8,M,19.4,M,12.1,0129*4A
3237996 $GPRMC,085416.10,A,3510.69706837,N,12654.61688932,E,2.76,74.07,280518,,,D*6D
3238096 $GPGGA,085416.20,3510.69709503,N,12654.61697915,E,2,07,1.4,46.8,M,19.4,M,12.2,0129*44
3238096 $GPRMC,085416.20,A,3510.69709503,N,12654.61697915,E,3.00,62.48,280518,,,D*6C
3238097 $GPGGA,085416.30,3510.69712405,N,12654.61707418,E,2,07,1.4,46.8,M,19.4,M,12.3,0129*41
3238196 $GPRMC,085416.30,A,3510.69712405,N,12654.61707418,E,3.23,63.63,280518,,,D*61
3238197 $GPGGA,085416.40,3510.69716207,N,12654.61717066,E,2,06,1.6,46.8,M,19.4,M,12.4,0129*4E
3238296 $GPRMC,085416.40,A,3510.69716207,N,12654.61717066,E,3.26,70.99,280518,,,D*68
3238396 $GPGGA,085416.50,3510.69719644,N,12654.61727949,E,2,06,1.6,46.8,M,19.4,M,12.5,0129*45
3238396 $GPRMC,085416.50,A,3510.69719644,N,12654.61727949,E,3.55,70.85,280518,,,D*6B
3238397 $GPGGA,085416.60,3510.69724010,N,12654.61739262,E,2,06,1.6,46.8,M,19.4,M,12.6,0129*41
3238496 $GPRMC,085416.60,A,3510.69724010,N,12654.61739262,E,3.91,70.14,280518,,,D*6C
3238497 $GPGGA,085416.70,3510.69727867,N,12654.61751664,E,2,06,1.6,46.8,M,19.4,M,12.7,0129*46
3238596 $GPRMC,085416.70,A,3510.69727867,N,12654.61751664,E,3.65,67.50,280518,,,D*67
3238697 $GPGGA,085416.80,3510.69731015,N,12654.61764044,E,2,06,1.6,46.8,M,19.4,M,12.8,0129*4E
3238697 $GPRMC,085416.80,A,3510.69731015,N,12654.61764044,E,3.99,71.37,280518,,,D*65
3238698 $GPGGA,085416.90,3510.69735076,N,12654.61776715,E,2,06,1.6,46.8,M,19.4,M,12.9,0129*4F
3238797 $GPRMC,085416.90,A,3510.69735076,N,12654.61776715,E,4.34,67.56,280518,,,D*65
3238798 $GPGGA,085417.00,3510.69739886,N,12654.61790553,E,2,06,1.6,46.8,M,19.4,M,13.0,0129*4C
3238895 $GPRMC,085417.00,A,3510.69739886,N,12654.61790553,E,4.32,66.79,280518,,,D*64
3238895 $GPGGA,085417.10,3510.69744327,N,12654.61804198,E,2,06,1.6,46.8,M,19.4,M,13.1,0129*47
3238996 $GPRMC,085417.10,A,3510.69744327,N,12654.61804198,E,4.51,65.39,280518,,,D*6C
3238997 $GPGGA,085417.20,3510.69749035,N,12654.61818431,E,2,06,1.6,46.8,M,19.4,M,13.2,0129*41
3239095 $GPRMC,085417.20,A,3510.69749035,N,12654.61818431,E,4.57,67.33,280518,,,D*67
3239096 $GPGGA,085417.30,3510.69754508,N,12654.61832681,E,2,06,1.6,46.8,M,19.4,M,13.3,0129*47
3239195 $GPRMC,085417.30,A,3510.69754508,N,12654.61832681,E,4.55,66.17,280518,,,D*65
3239195 $GPGGA,085417.40,3510.69759785,N,12654.61847015,E,2,06,1.6,46.8,M,19.4,M,13.4,0129*44
3239275 $GPRMC,085417.40,A,3510.69759785,N,12654.61847015,E,4.53,65.60,280518,,,D*64
3239296 $GPGGA,085417.50,3510.69765084,N,12654.61861615,E,2,06,1.6,46.8,M,19.4,M,13.5,0129*4F
3239395 $GPRMC,085417.50,A,3510.69765084,N,12654.61861615,E,4.68,68.38,280518,,,D*66
3239396 $GPGGA,085417.60,3510.69769668,N,12654.61876875,E,2,06,1.6,46.8,M,19.4,M,13.6,0129*49
3239496 $GPRMC,085417.60,A,3510.69769668,N,12654.61876875,E,4.55,63.95,280518,,,D*61
3239496 $GPGGA,085417.70,3510.69774527,N,12654.61891771,E,2,06,1.6,46.8,M,19.4,M,13.7,0129*4F
3239575 $GPRMC,085417.70,A,3510.69774527,N,12654.61891771,E,4.53,70.90,280518,,,D*67
3239601 $GPGGA,085417.80,3510.69779345,N,12654.61906659,E,2,06,1.6,46.8,M,19.4,M,13.8,0129*44
3239697 $GPRMC,085417.80,A,3510.69779345,N,12654.61906659,E,4.68,63.35,280518,,,D*66
3239797 $GPGGA,085417.90,3510.69784337,N,12654.61921807,E,2,06,1.6,46.8,M,19.4,M,13.9,0129*43
3239797 $GPRMC,085417.90,A,3510.69784337,N,12654.61921807,E,4.78,61.61,280518,,,D*62
3239798 $GPGGA,085418.00,3510.69790008,N,12654.61936814,E,2,07,1.4,46.8,M,19.4,M,14.0,0129*46
3239877 $GPRMC,085418.00,A,3510.69790008,N,12654.61936814,E,4.86,67.57,280518,,,D*68
3239898 $GPGGA,085418.10,3510.69794952,N,12654.61952262,E,2,07,1.4,46.8,M,19.4,M,14.1,0129*4D
3239998 $GPRMC,085418.10,A,3510.69794952,N,12654.61952262,E,4.97,67.26,280518,,,D*64
3240097 $GPGGA,085418.20,3510.69800095,N,12654.61968143,E,2,07,1.4,46.8,M,19.4,M,14.2,0129*44
3240097 $GPRMC,085418.20,A,3510.69800095,N,12654.61968143,E,5.10,69.38,280518,,,D*61
3240098 $GPGGA,085418.30,3510.69805077,N,12654.61984322,E,2,07,1.4,46.8,M,19.4,M,14.3,0129*4A
3240196 $GPRMC,085418.30,A,3510.69805077,N,12654.61984322,E,5.38,71.54,280518,,,D*67
3240197 $GPGGA,085418.40,3510.69810525,N,12654.62001570,E,2,07,1.4,46.8,M,19.4,M,14.4,0129*4A
3240297 $GPRMC,085418.40,A,3510.69810525,N,12654.62001570,E,5.28,68.41,280518,,,D*6D
3240397 $GPGGA,085418.50,3510.69816182,N,12654.62019026,E,2,07,1.4,46.8,M,19.4,M,14.5,0129*4A
3240397 $GPRMC,085418.50,A,3510.69816182,N,12654.62019026,E,5.41,68.23,280518,,,D*67
3240398 $GPGGA,085418.60,3510.69822048,N,12654.62036525,E,2,07,1.4,46.8,M,19.4,M,14.6,0129*41
3240496 $GPRMC,085418.60,A,3510.69822048,N,12654.62036525,E,5.92,67.89,280518,,,D*6E
3240497 $GPGGA,085418.70,3510.69827969,N,12654.62055480,E,2,07,1.4,46.9,M,19.4,M,14.7,0129*44
3240597 $GPRMC,085418.70,A,3510.69827969,N,12654.62055480,E,5.82,66.74,280518,,,D*69
3240677 $GPGGA,085418.80,3510.69835044,N,12654.62074449,E,2,09,1.4,46.9,M,19.4,M,14.8,0129*49
3240677 $GPRMC,085418.80,A,3510.69835044,N,12654.62074449,E,6.11,64.17,280518,,,D*6B
3240698 $GPGGA,085418.90,3510.69842118,N,12654.62094494,E,2,09,1.4,46.9,M,19.4,M,14.9,0129*4F
3240778 $GPRMC,085418.90,A,3510.69842118,N,12654.62094494,E,6.26,70.18,280518,,,D*62
3240799 $GPGGA,085419.00,3510.69848420,N,12654.62114725,E,2,09,1.4,46.9,M,19.4,M,15.0,0129*4B
3240901 $GPRMC,085419.00,A,3510.69848420,N,12654.62114725,E,6.33,72.18,280518,,,D*68
3240901 $GPGGA,085419.10,3510.69854391,N,12654.62135289,E,2,09,1.4,46.9,M,19.4,M,15.1,0129*4B
3240999 $GPRMC,085419.10,A,3510.69854391,N,12654.62135289,E,6.70,66.16,280518,,,D*65
3241000 $GPGGA,085419.20,3510.69862588,N,12654.62156696,E,2,09,1.4,46.9,M,19.4,M,15.2,0129*4F
3241099 $GPRMC,085419.20,A,3510.69862588,N,12654.62156696,E,7.14,68.94,280518,,,D*65
3241100 $GPGGA,085419.30,3510.69869378,N,12654.62178928,E,2,09,1.4,46.9,M,19.4,M,15.3,0129*4B
3241199 $GPRMC,085419.30,A,3510.69869378,N,12654.62178928,E,7.47,71.80,280518,,,D*6B
3241199 $GPGGA,085419.40,3510.69876285,N,12654.62202296,E,2,09,1.4,47.0,M,19.4,M,15.4,0129*4E
3241299 $GPRMC,085419.40,A,3510.69876285,N,12654.62202296,E,7.27,66.89,280518,,,D*68
3241300 $GPGGA,085419.50,3510.69884354,N,12654.62226236,E,2,09,1.4,47.0,M,19.4,M,15.5,0129*42
3241400 $GPRMC,085419.50,A,3510.69884354,N,12654.62226236,E,7.57,72.27,280518,,,D*63
3241401 $GPGGA,085419.60,3510.69891832,N,12654.62251196,E,2,09,1.4,47.0,M,19.4,M,15.6,0129*44
3241499 $GPRMC,085419.60,A,3510.69891832,N,12654.62251196,E,7.74,70.50,280518,,,D*65
3241499 $GPGGA,085419.70,3510.69899635,N,12654.62276214,E,2,09,1.4,47.0,M,19.4,M,15.7,0129*49
3241600 $GPRMC,085419.70,A,3510.69899635,N,12654.62276214,E,8.00,67.09,280518,,,D*6F
3241601 $GPGGA,085419.80,3510.69908826,N,12654.62301699,E,2,09,1.4,47.1,M,19.4,M,15.8,0129*4D
3241699 $GPRMC,085419.80,A,3510.69908826,N,12654.62301699,E,8.49,67.57,280518,,,D*63
3241799 $GPGGA,085419.90,3510.69917370,N,12654.62327751,E,2,09,1.4,47.1,M,19.4,M,15.9,0129*4A
3241799 $GPRMC,085419.90,A,3510.69917370,N,12654.62327751,E,8.23,69.93,280518,,,D*6F
3241800 $GPGGA,085420.00,3510.69925313,N,12654.62354112,E,2,09,1.4,47.1,M,19.4,M,16.0,0129*42
3241878 $GPRMC,085420.00,A,3510.69925313,N,12654.62354112,E,8.66,70.29,280518,,,D*65
3241900 $GPGGA,085420.10,3510.69933260,N,12654.62381834,E,2,09,1.4,47.1,M,19.4,M,16.1,0129*45
3241999 $GPRMC,085420.10,A,3510.69933260,N,12654.62381834,E,8.45,68.02,280518,,,D*62
3242100 $GPGGA,085420.20,3510.69942188,N,12654.62408749,E,2,09,1.4,47.1,M,19.4,M,16.2,0129*45
3242100 $GPRMC,085420.20,A,3510.69942188,N,12654.62408749,E,8.67,67.31,280518,,,D*6E
3242101 $GPGGA,085420.30,3510.69952233,N,12654.62435907,E,2,09,1.4,47.2,M,19.4,M,16.3,0129*4E
3242199 $GPRMC,085420.30,A,3510.69952233,N,12654.62435907,E,8.83,66.21,280518,,,D*6D
3242200 $GPGGA,085420.40,3510.69961383,N,12654.62463825,E,2,09,1.4,47.2,M,19.4,M,16.4,0129*46
3242299 $GPRMC,085420.40,A,3510.69961383,N,12654.62463825,E,8.70,67.75,280518,,,D*6E
3242399 $GPGGA,085420.50,3510.69969870,N,12654.62491962,E,2,09,1.4,47.2,M,19.4,M,16.5,0129*46
3242399 $GPRMC,085420.50,A,3510.69969870,N,12654.62491962,E,9.23,67.92,280518,,,D*61
3242400 $GPGGA,085420.60,3510.69978852,N,12654.62521772,E,2,09,1.4,47.2,M,19.4,M,16.6,0129*43
3242499 $GPRMC,085420.60,A,3510.69978852,N,12654.62521772,E,9.61,68.46,280518,,,D*67
3242500 $GPGGA,085420.70,3510.69988916,N,12654.62552467,E,2,09,1.4,47.2,M,19.4,M,16.7,0129*4E
3242601 $GPRMC,085420.70,A,3510.69988916,N,12654.62552467,E,9.86,68.50,280518,,,D*65
3242699 $GPGGA,085420.80,3510.69998418,N,12654.62583983,E,2,09,1.4,47.2,M,19.4,M,16.8,0129*47
3242699 $GPRMC,085420.80,A,3510.69998418,N,12654.62583983,E,9.79,65.87,280518,,,D*64
3242700 $GPGGA,085420.90,3510.70008876,N,12654.62615044,E,2,09,1.4,47.2,M,19.4,M,16.9,0129*45
3242799 $GPRMC,085420.90,A,3510.70008876,N,12654.62615044,E,9.94,68.27,280518,,,D*63
3242800 $GPGGA,085421.00,3510.70019593,N,12654.62647200,E,2,09,1.4,47.2,M,19.4,M,17.0,0129*46
3242900 $GPRMC,085421.00,A,3510.70019593,N,12654.62647200,E,10.47,69.13,280518,,,D*58
3242900 $GPGGA,085421.10,3510.70030165,N,12654.62680468,E,2,09,1.4,47.3,M,19.4,M,17.1,0129*42
3243000 $GPRMC,085421.10,A,3510.70030165,N,12654.62680468,E,10.32,66.82,280518,,,D*59
3243001 $GPGGA,085421.20,3510.70041254,N,12654.62713163,E,2,09,1.4,47.3,M,19.4,M,17.2,0129*40
3243099 $GPRMC,085421.20,A,3510.70041254,N,12654.62713163,E,10.27,67.39,280518,,,D*5D
3243100 $GPGGA,085421.30,3510.70051884,N,12654.62745947,E,2,09,1.4,47.3,M,19.4,M,17.3,0129*4B
3243198 $GPRMC,085421.30,A,3510.70051884,N,12654.62745947,E,10.59,70.89,280518,,,D*53
3243198 $GPGGA,085421.40,3510.70062803,N,12654.62779786,E,2,09,1.4,47.3,M,19.4,M,17.4,0129*48
3243299 $GPRMC,085421.40,A,3510.70062803,N,12654.62779786,E,10.73,67.83,280518,,,D*53
3243300 $GPGGA,085421.50,3510.70074770,N,12654.62813520,E,2,09,1.4,47.3,M,19.4,M,17.5,0129*49
3243399 $GPRMC,085421.50,A,3510.70074770,N,12654.62813520,E,11.11,65.35,280518,,,D*59
3243400 $GPGGA,085421.60,3510.70087281,N,12654.62847997,E,2,09,1.4,47.3,M,19.4,M,17.6,0129*4F
3243500 $GPRMC,085421.60,A,3510.70087281,N,12654.62847997,E,11.61,67.15,280518,,,D*5B
3243500 $GPGGA,085421.70,3510.70100490,N,12654.62884336,E,2,09,1.4,47.3,M,19.4,M,17.7,0129*49
3243598 $GPRMC,085421.70,A,3510.70100490,N,12654.62884336,E,11.49,70.64,280518,,,D*56
3243599 $GPGGA,085421.80,3510.70112285,N,12654.62921114,E,2,09,1.4,47.4,M,19.4,M,17.8,0129*43
3243699 $GPRMC,085421.80,A,3510.70112285,N,12654.62921114,E,11.45,67.32,280518,,,D*5D
3243700 $GPGGA,085421.90,3510.70124702,N,12654.62957204,E,2,09,1.4,47.4,M,19.4,M,17.9,0129*4F
3243799 $GPRMC,085421.90,A,3510.70124702,N,12654.62957204,E,11.89,67.12,280518,,,D*52
3243799 $GPGGA,085422.00,3510.70138048,N,12654.62994450,E,2,09,1.4,47.4,M,19.4,M,18.0,0129*4F
3243900 $GPRMC,085422.00,A,3510.70138048,N,12654.62994450,E,11.75,65.59,280518,,,D*5A
3243901 $GPGGA,085422.10,3510.70150984,N,12654.63031503,E,2,09,1.4,47.4,M,19.4,M,18.1,0129*48
3243999 $GPRMC,085422.10,A,3510.70150984,N,12654.63031503,E,11.76,65.56,280518,,,D*50
3244000 $GPGGA,085422.20,3510.70163903,N,12654.63068859,E,2,09,1.4,47.4,M,19.4,M,18.2,0129*49
3244099 $GPRMC,085422.20,A,3510.70163903,N,12654.63068859,E,12.01,68.00,280518,,,D*5F
3244099 $GPGGA,085422.30,3510.70177807,N,12654.63107098,E,2,09,1.4,47.5,M,19.4,M,18.3,0129*45
3244199 $GPRMC,085422.30,A,3510.70177807,N,12654.63107098,E,12.37,66.45,280518,,,D*59
3244200 $GPGGA,085422.40,3510.70191964,N,12654.63145016,E,2,09,1.4,47.5,M,19.4,M,18.4,0129*49
3244299 $GPRMC,085422.40,A,3510.70191964,N,12654.63145016,E,12.38,68.90,280518,,,D*5B
3244300 $GPGGA,085422.50,3510.70205224,N,12654.63183921,E,2,09,1.4,47.5,M,19.4,M,18.5,0129*4F
3244399 $GPRMC,085422.50,A,3510.70205224,N,12654.63183921,E,12.79,66.00,280518,,,D*5E
3244399 $GPGGA,085422.60,3510.70219470,N,12654.63224467,E,2,09,1.4,47.5,M,19.4,M,18.6,0129*44
3244499 $GPRMC,085422.60,A,3510.70219470,N,12654.63224467,E,12.63,67.78,280518,,,D*53
3244500 $GPGGA,085422.70,3510.70233622,N,12654.63265271,E,2,09,1.4,47.5,M,19.4,M,18.7,0129*4D
3244599 $GPRMC,085422.70,A,3510.70233622,N,12654.63265271,E,13.52,66.57,280518,,,D*54
3244600 $GPGGA,085422.80,3510.70248935,N,12654.63308074,E,2,09,1.4,47.6,M,19.4,M,18.8,0129*46
3244600 $GPRMC,085422.80,A,3510.70248935,N,12654.63308074,E,13.65,67.56,280518,,,D*57
3244700 $GPGGA,085422.90,3510.70263339,N,12654.63351591,E,2,09,1.4,47.6,M,19.4,M,18.9,0129*4B
3244799 $GPRMC,085422.90,A,3510.70263339,N,12654.63351591,E,14.01,66.20,280518,,,D*5E
3244800 $GPGGA,085423.00,3510.70279075,N,12654.63395522,E,2,09,1.4,47.6,M,19.4,M,19.0,0129*4B
3244899 $GPRMC,085423.00,A,3510.70279075,N,12654.63395522,E,14.27,64.85,280518,,,D*5F
3244998 $GPGGA,085423.10,3510.70295007,N,12654.63439709,E,2,09,1.4,47.6,M,19.4,M,19.1,0129*46
3244998 $GPRMC,085423.10,A,3510.70295007,N,12654.63439709,E,14.10,68.24,280518,,,D*50
3244999 $GPGGA,085423.20,3510.70309901,N,12654.63484311,E,2,09,1.4,47.7,M,19.4,M,19.2,0129*47
3245079 $GPRMC,085423.20,A,3510.70309901,N,12654.63484311,E,14.30,66.94,280518,,,D*54
3245099 $GPGGA,085423.30,3510.70326373,N,12654.63529488,E,2,09,1.4,47.7,M,19.4,M,19.3,0129*44
3245200 $GPRMC,085423.30,A,3510.70326373,N,12654.63529488,E,14.31,65.84,280518,,,D*55
3245299 $GPGGA,085423.40,3510.70343165,N,12654.63574778,E,2,09,1.4,47.7,M,19.4,M,19.4,0129*46
3245299 $GPRMC,085423.40,A,3510.70343165,N,12654.63574778,E,14.96,66.31,280518,,,D*50
3245300 $GPGGA,085423.50,3510.70360845,N,12654.63621617,E,2,09,1.4,47.7,M,19.4,M,19.5,0129*47
3245399 $GPRMC,085423.50,A,3510.70360845,N,12654.63621617,E,14.75,65.56,280518,,,D*5F
3245400 $GPGGA,085423.60,3510.70378447,N,12654.63667922,E,2,09,1.4,47.8,M,19.4,M,19.6,0129*44
3245499 $GPRMC,085423.60,A,3510.70378447,N,12654.63667922,E,15.30,67.04,280518,,,D*55
3245579 $GPGGA,085423.70,3510.70396440,N,12654.63715599,E,2,09,1.4,47.8,M,19.4,M,19.7,0129*4B
3245579 $GPRMC,085423.70,A,3510.70396440,N,12654.63715599,E,15.38,66.40,280518,,,D*52
3245601 $GPGGA,085423.80,3510.70414282,N,12654.63763201,E,2,09,1.4,47.8,M,19.4,M,19.8,0129*49
3245681 $GPRMC,085423.80,A,3510.70414282,N,12654.63763201,E,15.28,64.14,280518,,,D*5D
3245701 $GPGGA,085423.90,3510.70432172,N,12654.63811095,E,2,09,1.4,47.8,M,19.4,M,19.9,0129*44
3245800 $GPRMC,085423.90,A,3510.70432172,N,12654.63811095,E,15.73,65.12,280518,,,D*58
3245899 $GPGGA,085424.00,3510.70450051,N,12654.63859865,E,2,09,1.4,47.8,M,19.4,M,20.0,0129*46
3245899 $GPRMC,085424.00,A,3510.70450051,N,12654.63859865,E,15.30,65.52,280518,,,D*5A
3245900 $GPGGA,085424.10,3510.70466776,N,12654.63908494,E,2,09,1.4,47.8,M,19.4,M,20.1,0129*46
3245999 $GPRMC,085424.10,A,3510.70466776,N,12654.63908494,E,15.94,65.78,280518,,,D*5D
3246000 $GPGGA,085424.20,3510.70486112,N,12654.63957860,E,2,09,1.4,47.9,M,19.4,M,20.2,0129*40
3246100 $GPRMC,085424.20,A,3510.70486112,N,12654.63957860,E,16.08,64.69,280518,,,D*5E
3246200 $GPGGA,085424.30,3510.70505046,N,12654.64007387,E,2,09,1.4,47.9,M,19.4,M,20.3,0129*43
3246200 $GPRMC,085424.30,A,3510.70505046,N,12654.64007387,E,16.04,65.77,280518,,,D*5E
3246201 $GPGGA,085424.40,3510.70523789,N,12654.64057396,E,2,09,1.4,47.9,M,19.4,M,20.4,0129*46
3246300 $GPRMC,085424.40,A,3510.70523789,N,12654.64057396,E,16.34,62.43,280518,,,D*5F
3246301 $GPGGA,085424.50,3510.70542549,N,12654.64107027,E,2,09,1.4,47.9,M,19.4,M,20.5,0129*42
3246400 $GPRMC,085424.50,A,3510.70542549,N,12654.64107027,E,16.31,68.00,280518,,,D*52
3246500 $GPGGA,085424.60,3510.70561217,N,12654.64158907,E,2,09,1.4,47.9,M,19.4,M,20.6,0129*4E
3246500 $GPRMC,085424.60,A,3510.70561217,N,12654.64158907,E,16.36,65.49,280518,,,D*5A
3246501 $GPGGA,085424.70,3510.70578564,N,12654.64210152,E,2,09,1.4,47.9,M,19.4,M,20.7,0129*42
3246579 $GPRMC,085424.70,A,3510.70578564,N,12654.64210152,E,16.42,64.69,280518,,,D*57
3246600 $GPGGA,085424.80,3510.70597804,N,12654.64261333,E,2,09,1.4,47.9,M,19.4,M,20.8,0129*4B
3246699 $GPRMC,085424.80,A,3510.70597804,N,12654.64261333,E,16.82,66.43,280518,,,D*57
3246799 $GPGGA,085424.90,3510.70617859,N,12654.64313922,E,2,09,1.4,48.0,M,19.4,M,20.9,0129*40
3246799 $GPRMC,085424.90,A,3510.70617859,N,12654.64313922,E,16.77,66.19,280518,,,D*5E
3246800 $GPGGA,085425.00,3510.70636131,N,12654.64366665,E,2,09,1.4,47.9,M,19.4,M,21.0,0129*4C
3246899 $GPRMC,085425.00,A,3510.70636131,N,12654.64366665,E,16.89,66.42,280518,,,D*53
3246900 $GPGGA,085425.10,3510.70654921,N,12654.64419981,E,2,09,1.4,48.0,M,19.4,M,21.1,0129*4D
3247001 $GPRMC,085425.10,A,3510.70654921,N,12654.64419981,E,16.89,66.98,280518,,,D*52
3247100 $GPGGA,085425.20,3510.70673063,N,12654.64473296,E,2,09,1.4,48.0,M,19.4,M,21.2,0129*46
3247100 $GPRMC,085425.20,A,3510.70673063,N,12654.64473296,E,16.47,65.09,280518,,,D*53
3247101 $GPGGA,085425.30,3510.70693322,N,12654.64525144,E,2,09,1.4,48.0,M,19.4,M,21.3,0129*40
3247201 $GPRMC,085425.30,A,3510.70693322,N,12654.64525144,E,17.09,68.53,280518,,,D*5D
3247202 $GPGGA,085425.40,3510.70712519,N,12654.64578634,E,2,09,1.4,48.0,M,19.4,M,21.4,0129*4E
3247299 $GPRMC,085425.40,A,3510.70712519,N,12654.64578634,E,17.19,66.36,280518,,,D*58
3247399 $GPGGA,085425.50,3510.70732768,N,12654.64631738,E,2,09,1.4,48.0,M,19.4,M,21.5,0129*4B
3247399 $GPRMC,085425.50,A,3510.70732768,N,12654.64631738,E,17.18,66.86,280518,,,D*56
3247400 $GPGGA,085425.60,3510.70752729,N,12654.64685674,E,2,09,1.4,48.0,M,19.4,M,21.6,0129*4E
3247479 $GPRMC,085425.60,A,3510.70752729,N,12654.64685674,E,17.22,66.42,280518,,,D*51
3247500 $GPGGA,085425.70,3510.70772762,N,12654.64739371,E,2,09,1.4,48.0,M,19.4,M,21.7,0129*45
3247601 $GPRMC,085425.70,A,3510.70772762,N,12654.64739371,E,17.61,64.43,280518,,,D*5F
3247700 $GPGGA,085425.80,3510.70793471,N,12654.64793808,E,2,09,1.4,48.1,M,19.4,M,21.8,0129*4F
3247700 $GPRMC,085425.80,A,3510.70793471,N,12654.64793808,E,17.28,66.08,280518,,,D*5B
3247701 $GPGGA,085425.90,3510.70812544,N,12654.64847607,E,2,09,1.4,48.1,M,19.4,M,21.9,0129*49
3247801 $GPRMC,085425.90,A,3510.70812544,N,12654.64847607,E,17.45,65.98,280518,,,D*5D
3247802 $GPGGA,085426.00,3510.70833652,N,12654.64900924,E,2,09,1.4,48.1,M,19.4,M,22.0,0129*42
3247900 $GPRMC,085426.00,A,3510.70833652,N,12654.64900924,E,17.40,66.80,280518,,,D*53
3247900 $GPGGA,085426.10,3510.70852769,N,12654.64955137,E,2,09,1.4,48.1,M,19.4,M,22.1,0129*46
3248000 $GPRMC,085426.10,A,3510.70852769,N,12654.64955137,E,17.26,66.92,280518,,,D*55
3248001 $GPGGA,085426.20,3510.70871605,N,12654.65008890,E,2,09,1.4,48.1,M,19.4,M,22.2,0129*48
3248100 $GPRMC,085426.20,A,3510.70871605,N,12654.65008890,E,17.21,66.62,280518,,,D*50
3248101 $GPGGA,085426.30,3510.70891279,N,12654.65063017,E,2,09,1.4,48.1,M,19.4,M,22.3,0129*43
3248200 $GPRMC,085426.30,A,3510.70891279,N,12654.65063017,E,17.17,65.66,280518,,,D*58
3248200 $GPGGA,085426.40,3510.70911487,N,12654.65116282,E,2,09,1.4,48.1,M,19.4,M,22.4,0129*40
3248300 $GPRMC,085426.40,A,3510.70911487,N,12654.65116282,E,17.32,66.93,280518,,,D*52
3248301 $GPGGA,085426.50,3510.70929905,N,12654.65170214,E,2,09,1.4,48.1,M,19.4,M,22.5,0129*43
3248400 $GPRMC,085426.50,A,3510.70929905,N,12654.65170214,E,16.86,66.55,280518,,,D*54
3248401 $GPGGA,085426.60,3510.70949319,N,12654.65222902,E,2,09,1.4,48.1,M,19.4,M,22.6,0129*4A
3248500 $GPRMC,085426.60,A,3510.70949319,N,12654.65222902,E,16.61,65.89,280518,,,D*55
3248500 $GPGGA,085426.70,3510.70968776,N,12654.65274515,E,2,09,1.4,48.1,M,19.4,M,22.7,0129*4D
3248599 $GPRMC,085426.70,A,3510.70968776,N,12654.65274515,E,16.78,67.43,280518,,,D*5F
3248600 $GPGGA,085426.80,3510.70988504,N,12654.65326912,E,2,09,1.4,48.1,M,19.4,M,22.8,0129*49
3248701 $GPRMC,085426.80,A,3510.70988504,N,12654.65326912,E,16.83,66.81,280518,,,D*5F
3248702 $GPGGA,085426.90,3510.71007063,N,12654.65379758,E,2,09,1.4,48.1,M,19.4,M,22.9,0129*48
3248800 $GPRMC,085426.90,A,3510.71007063,N,12654.65379758,E,16.95,66.35,280518,,,D*57
3248800 $GPGGA,085427.00,3510.71026454,N,12654.65431959,E,2,09,1.4,48.1,M,19.4,M,23.0,0129*4F
3248900 $GPRMC,085427.00,A,3510.71026454,N,12654.65431959,E,16.65,64.77,280518,,,D*53
3248901 $GPGGA,085427.10,3510.71046853,N,12654.65483770,E,2,09,1.4,48.2,M,19.4,M,23.1,0129*4D
3249001 $GPRMC,085427.10,A,3510.71046853,N,12654.65483770,E,16.66,66.48,280518,,,D*5E
3249002 $GPGGA,085427.20,3510.71065217,N,12654.65535381,E,2,09,1.4,48.2,M,19.4,M,23.2,0129*40
3249100 $GPRMC,085427.20,A,3510.71065217,N,12654.65535381,E,16.69,67.96,280518,,,D*5D
3249100 $GPGGA,085427.30,3510.71084586,N,12654.65587285,E,2,09,1.4,48.2,M,19.4,M,23.3,0129*4C
3249200 $GPRMC,085427.30,A,3510.71084586,N,12654.65587285,E,16.62,67.30,280518,,,D*57
3249201 $GPGGA,085427.40,3510.71102874,N,12654.65638689,E,2,09,1.4,48.2,M,19.4,M,23.4,0129*4C
3249300 $GPRMC,085427.40,A,3510.71102874,N,12654.65638689,E,16.44,66.55,280518,,,D*56
3249301 $GPGGA,085427.50,3510.71121333,N,12654.65689797,E,2,09,1.4,48.2,M,19.4,M,23.5,0129*41
3249399 $GPRMC,085427.50,A,3510.71121333,N,12654.65689797,E,16.37,66.40,280518,,,D*5A
3249399 $GPGGA,085427.60,3510.71139194,N,12654.65741022,E,2,09,1.4,48.2,M,19.4,M,23.6,0129*4B
3249500 $GPRMC,085427.60,A,3510.71139194,N,12654.65741022,E,16.30,66.47,280518,,,D*53
3249501 $GPGGA,085427.70,3510.71157807,N,12654.65791629,E,2,09,1.4,48.2,M,19.4,M,23.7,0129*40
3249599 $GPRMC,085427.70,A,3510.71157807,N,12654.65791629,E,16.27,66.08,280518,,,D*54
3249600 $GPGGA,085427.80,3510.71176089,N,12654.65842207,E,2,09,1.4,48.2,M,19.4,M,23.8,0129*44
3249600 $GPRMC,085427.80,A,3510.71176089,N,12654.65842207,E,16.07,66.81,280518,,,D*5C
3249699 $GPGGA,085427.90,3510.71193478,N,12654.65892367,E,2,09,1.4,48.2,M,19.4,M,23.9,0129*4F
3249798 $GPRMC,085427.90,A,3510.71193478,N,12654.65892367,E,16.14,67.10,280518,,,D*5D
3249799 $GPGGA,085428.00,3510.71211290,N,12654.65942957,E,2,09,1.4,48.2,M,19.4,M,24.0,0129*4B
3249899 $GPRMC,085428.00,A,3510.71211290,N,12654.65942957,E,16.15,67.08,280518,,,D*5F
3249999 $GPGGA,085428.10,3510.71229288,N,12654.65993404,E,2,09,1.4,48.2,M,19.4,M,24.1,0129*4E
3249999 $GPRMC,085428.10,A,3510.71229288,N,12654.65993404,E,15.96,67.25,280518,,,D*5C
3250000 $GPGGA,085428.20,3510.71246142,N,12654.66043797,E,2,09,1.4,48.2,M,19.4,M,24.2,0129*4C
3250099 $GPRMC,085428.20,A,3510.71246142,N,12654.66043797,E,15.97,67.71,280518,,,D*5D
3250100 $GPGGA,085428.30,3510.71263334,N,12654.66093846,E,2,09,1.4,48.2,M,19.4,M,24.3,0129*46
3250199 $GPRMC,085428.30,A,3510.71263334,N,12654.66093846,E,15.83,66.86,280518,,,D*5A
3250299 $GPGGA,085428.40,3510.71280955,N,12654.66143603,E,2,09,1.4,48.2,M,19.4,M,24.4,0129*45
3250299 $GPRMC,085428.40,A,3510.71280955,N,12654.66143603,E,15.80,66.23,280518,,,D*52
3250300 $GPGGA,085428.50,3510.71299204,N,12654.66192645,E,2,09,1.4,48.2,M,19.4,M,24.5,0129*4C
3250399 $GPRMC,085428.50,A,3510.71299204,N,12654.66192645,E,15.83,66.24,280518,,,D*5E
3250400 $GPGGA,085428.60,3510.71316913,N,12654.66241542,E,2,09,1.4,48.2,M,19.4,M,24.6,0129*4E
3250499 $GPRMC,085428.60,A,3510.71316913,N,12654.66241542,E,15.68,66.20,280518,,,D*5E
3250599 $GPGGA,085428.70,3510.71333425,N,12654.66290603,E,2,09,1.4,48.2,M,19.4,M,24.7,0129*4B
3250599 $GPRMC,085428.70,A,3510.71333425,N,12654.66290603,E,15.71,66.95,280518,,,D*5C
3250600 $GPGGA,085428.80,3510.71351021,N,12654.66339071,E,2,09,1.4,48.2,M,19.4,M,24.8,0129*4E
3250679 $GPRMC,085428.80,A,3510.71351021,N,12654.66339071,E,15.67,68.16,280518,,,D*54
3250701 $GPGGA,085428.90,3510.71368997,N,12654.66387689,E,2,09,1.4,48.2,M,19.4,M,24.9,0129*44
3250799 $GPRMC,085428.90,A,3510.71368997,N,12654.66387689,E,15.52,68.16,280518,,,D*59
3250899 $GPGGA,085429.00,3510.71385062,N,12654.66436694,E,2,09,1.4,48.2,M,19.4,M,25.0,0129*45
3250899 $GPRMC,085429.00,A,3510.71385062,N,12654.66436694,E,15.39,66.25,280518,,,D*53
3250900 $GPGGA,085429.10,3510.71401837,N,12654.66485088,E,2,09,1.4,48.2,M,19.4,M,25.1,0129*45
3250979 $GPRMC,085429.10,A,3510.71401837,N,12654.66485088,E,15.33,67.53,280518,,,D*58
3251000 $GPGGA,085429.20,3510.71417985,N,12654.66533628,E,2,09,1.4,48.2,M,19.4,M,25.2,0129*4A
3251099 $GPRMC,085429.20,A,3510.71417985,N,12654.66533628,E,15.26,66.12,280518,,,D*54
3251199 $GPGGA,085429.30,3510.71435157,N,12654.66581347,E,2,09,1.4,48.3,M,19.4,M,25.3,0129*49
3251199 $GPRMC,085429.30,A,3510.71435157,N,12654.66581347,E,15.29,67.21,280518,,,D*59
3251200 $GPGGA,085429.40,3510.71451875,N,12654.66629314,E,2,09,1.4,48.3,M,19.4,M,25.4,0129*45
3251298 $GPRMC,085429.40,A,3510.71451875,N,12654.66629314,E,15.23,67.17,280518,,,D*5D
3251299 $GPGGA,085429.50,3510.71468442,N,12654.66677276,E,2,09,1.4,48.3,M,19.4,M,25.5,0129*49
3251399 $GPRMC,085429.50,A,3510.71468442,N,12654.66677276,E,15.49,67.05,280518,,,D*5F
3251499 $GPGGA,085429.60,3510.71484701,N,12654.66725023,E,2,09,1.4,48.3,M,19.4,M,6.6,0129*7A
3251499 $GPRMC,085429.60,A,3510.71484701,N,12654.66725023,E,15.13,66.85,280518,,,D*58
3251500 $GPGGA,085429.70,3510.71501048,N,12654.66772269,E,2,09,1.4,48.3,M,19.4,M,6.7,0129*72
3251600 $GPRMC,085429.70,A,3510.71501048,N,12654.66772269,E,14.99,67.68,280518,,,D*50
3251601 $GPGGA,085429.80,3510.71517030,N,12654.66819955,E,2,09,1.4,48.3,M,19.4,M,6.8,0129*7C
3251698 $GPRMC,085429.80,A,3510.71517030,N,12654.66819955,E,15.17,67.14,280518,,,D*5D
3251778 $GPGGA,085429.90,3510.71533312,N,12654.66867417,E,2,09,1.4,48.3,M,19.4,M,6.9,0129*7B
3251778 $GPRMC,085429.90,A,3510.71533312,N,12654.66867417,E,15.03,67.66,280518,,,D*5B
3251805 $GPGGA,085430.00,3510.71549706,N,12654.66914437,E,2,09,1.4,48.3,M,19.4,M,7.0,0129*79
3251899 $GPRMC,085430.00,A,3510.71549706,N,12654.66914437,E,15.10,68.95,280518,,,D*50
3251900 $GPGGA,085430.10,3510.71564512,N,12654.66961844,E,2,09,1.4,48.3,M,19.4,M,7.1,0129*7B
3251999 $GPRMC,085430.10,A,3510.71564512,N,12654.66961844,E,14.70,67.71,280518,,,D*51
3251999 $GPGGA,085430.20,3510.71580432,N,12654.67007797,E,2,09,1.4,48.3,M,19.4,M,7.2,0129*7B
3252099 $GPRMC,085430.20,A,3510.71580432,N,12654.67007797,E,14.73,67.32,280518,,,D*56
3252100 $GPGGA,085430.30,3510.71596089,N,12654.67054376,E,2,09,1.4,48.3,M,19.4,M,7.3,0129*75
3252199 $GPRMC,085430.30,A,3510.71596089,N,12654.67054376,E,14.74,66.87,280518,,,D*51
3252200 $GPGGA,085430.40,3510.71612074,N,12654.67100302,E,2,09,1.4,48.3,M,19.4,M,7.4,0129*7B
3252299 $GPRMC,085430.40,A,3510.71612074,N,12654.67100302,E,14.56,67.90,280518,,,D*5F
3252299 $GPGGA,085430.50,3510.71628011,N,12654.67146105,E,2,09,1.4,48.3,M,19.4,M,7.5,0129*76
3252399 $GPRMC,085430.50,A,3510.71628011,N,12654.67146105,E,14.77,68.16,280518,,,D*51
3252400 $GPGGA,085430.60,3510.71643378,N,12654.67191922,E,2,09,1.4,48.3,M,19.4,M,6.6,0129*71
3252500 $GPRMC,085430.60,A,3510.71643378,N,12654.67191922,E,14.58,66.72,280518,,,D*55
3252501 $GPGGA,085430.70,3510.71658515,N,12654.67237810,E,2,09,1.4,48.3,M,19.4,M,6.7,0129*79
3252600 $GPRMC,085430.70,A,3510.71658515,N,12654.67237810,E,14.42,69.58,280518,,,D*50
3252600 $GPGGA,085430.80,3510.71673287,N,12654.67283233,E,2,09,1.4,48.3,M,19.4,M,6.8,0129*78
3252701 $GPRMC,085430.80,A,3510.71673287,N,12654.67283233,E,14.51,66.48,280518,,,D*52
3252702 $GPGGA,085430.90,3510.71688609,N,12654.67328736,E,2,09,1.4,48.3,M,19.4,M,6.9,0129*7E
3252800 $GPRMC,085430.90,A,3510.71688609,N,12654.67328736,E,14.34,67.36,280518,,,D*5E
3252899 $GPGGA,085431.00,3510.71704114,N,12654.67373470,E,2,09,1.4,48.4,M,19.4,M,7.0,0129*78
3252899 $GPRMC,085431.00,A,3510.71704114,N,12654.67373470,E,14.16,68.62,280518,,,D*59
3252900 $GPGGA,085431.10,3510.71718968,N,12654.67417519,E,2,09,1.4,48.4,M,19.4,M,7.1,0129*7D
3252978 $GPRMC,085431.10,A,3510.71718968,N,12654.67417519,E,13.49,66.50,280518,,,D*5F
3252999 $GPGGA,085431.20,3510.71733832,N,12654.67459560,E,2,09,1.4,48.4,M,19.4,M,7.2,0129*7E
3253098 $GPRMC,085431.20,A,3510.71733832,N,12654.67459560,E,13.35,66.97,280518,,,D*5F
3253199 $GPGGA,085431.30,3510.71747356,N,12654.67501191,E,2,09,1.4,48.4,M,19.4,M,7.3,0129*72
3253199 $GPRMC,085431.30,A,3510.71747356,N,12654.67501191,E,12.91,67.08,280518,,,D*5A
3253200 $GPGGA,085431.40,3510.71761871,N,12654.67541601,E,2,09,1.4,48.4,M,19.4,M,7.4,0129*72
3253300 $GPRMC,085431.40,A,3510.71761871,N,12654.67541601,E,12.63,67.01,280518,,,D*59
3253301 $GPGGA,085431.50,3510.71774849,N,12654.67581236,E,2,09,1.4,48.4,M,19.4,M,7.5,0129*71
3253399 $GPRMC,085431.50,A,3510.71774849,N,12654.67581236,E,12.36,66.92,280518,,,D*50
3253500 $GPGGA,085431.60,3510.71787468,N,12654.67619641,E,2,09,1.4,48.4,M,19.4,M,3.6,0129*70
3253500 $GPRMC,085431.60,A,3510.71787468,N,12654.67619641,E,12.17,67.17,280518,,,D*59
3253501 $GPGGA,085431.70,3510.71800808,N,12654.67657423,E,2,09,1.4,48.4,M,19.4,M,3.7,0129*76
3253602 $GPRMC,085431.70,A,3510.71800808,N,12654.67657423,E,12.16,64.73,280518,,,D*5E
3253603 $GPGGA,085431.80,3510.71813879,N,12654.67694693,E,2,09,1.4,48.4,M,19.4,M,3.8,0129*74
3253700 $GPRMC,085431.80,A,3510.71813879,N,12654.67694693,E,11.89,67.67,280518,,,D*50
3253798 $GPGGA,085431.90,3510.71826928,N,12654.67732530,E,2,09,1.4,48.4,M,19.4,M,3.9,0129*70
3253798 $GPRMC,085431.90,A,3510.71826928,N,12654.67732530,E,11.56,67.80,280518,,,D*5E
3253799 $GPGGA,085432.00,3510.71839414,N,12654.67768806,E,2,08,1.4,48.4,M,19.4,M,4.0,0129*7E
3253898 $GPRMC,085432.00,A,3510.71839414,N,12654.67768806,E,11.43,67.41,280518,,,D*56
3253899 $GPGGA,085432.10,3510.71852256,N,12654.67804260,E,2,08,1.4,48.4,M,19.4,M,4.1,0129*7C
3253999 $GPRMC,085432.10,A,3510.71852256,N,12654.67804260,E,11.19,66.88,280518,,,D*5E
3253999 $GPGGA,085432.20,3510.71864853,N,12654.67839122,E,2,08,1.4,48.4,M,19.4,M,4.2,0129*7D
3254099 $GPRMC,085432.20,A,3510.71864853,N,12654.67839122,E,11.11,67.50,280518,,,D*50
3254100 $GPGGA,085432.30,3510.71877029,N,12654.67873188,E,2,08,1.4,48.4,M,19.4,M,4.3,0129*74
3254198 $GPRMC,085432.30,A,3510.71877029,N,12654.67873188,E,10.80,63.56,280518,,,D*53
3254199 $GPGGA,085432.40,3510.71889859,N,12654.67906209,E,2,08,1.4,48.4,M,19.4,M,4.4,0129*73
3254297 $GPRMC,085432.40,A,3510.71889859,N,12654.67906209,E,10.32,65.91,280518,,,D*57
3254297 $GPGGA,085432.50,3510.71901999,N,12654.67937951,E,2,08,1.4,48.4,M,19.4,M,4.5,0129*7B
3254398 $GPRMC,085432.50,A,3510.71901999,N,12654.67937951,E,9.97,64.82,280518,,,D*6A
3254399 $GPGGA,085432.60,3510.71913938,N,12654.67968627,E,2,08,1.4,48.4,M,19.4,M,4.6,0129*77
3254499 $GPRMC,085432.60,A,3510.71913938,N,12654.67968627,E,9.98,64.41,280518,,,D*65
3254600 $GPGGA,085432.70,3510.71925135,N,12654.67998797,E,2,08,1.4,48.5,M,19.4,M,4.7,0129*73
3254600 $GPRMC,085432.70,A,3510.71925135,N,12654.67998797,E,9.78,65.55,280518,,,D*6B
3254601 $GPGGA,085432.80,3510.71937640,N,12654.68028636,E,2,08,1.4,48.5,M,19.4,M,4.8,0129*72
3254699 $GPRMC,085432.80,A,3510.71937640,N,12654.68028636,E,9.21,63.00,280518,,,D*6F
3254700 $GPGGA,085432.90,3510.71948936,N,12654.68056127,E,2,08,1.4,48.5,M,19.4,M,4.9,0129*7A
3254798 $GPRMC,085432.90,A,3510.71948936,N,12654.68056127,E,9.26,60.05,280518,,,D*67
3254898 $GPGGA,085433.00,3510.71961220,N,12654.68083119,E,2,08,1.4,48.5,M,19.4,M,5.0,0129*78
3254898 $GPRMC,085433.00,A,3510.71961220,N,12654.68083119,E,8.30,63.03,280518,,,D*6E
3254899 $GPGGA,085433.10,3510.71972378,N,12654.68108380,E,2,08,1.4,48.5,M,19.4,M,5.1,0129*76
3254998 $GPRMC,085433.10,A,3510.71972378,N,12654.68108380,E,8.62,63.72,280518,,,D*60
3254999 $GPGGA,085433.20,3510.71983922,N,12654.68133350,E,2,08,1.4,48.5,M,19.4,M,5.2,0129*78
3255098 $GPRMC,085433.20,A,3510.71983922,N,12654.68133350,E,8.38,60.35,280518,,,D*62
3255199 $GPGGA,085433.30,3510.71996270,N,12654.68157569,E,2,08,1.4,48.5,M,19.4,M,5.3,0129*7E
3255199 $GPRMC,085433.30,A,3510.71996270,N,12654.68157569,E,8.46,57.10,280518,,,D*6F
3255200 $GPGGA,085433.40,3510.72008695,N,12654.68181500,E,2,08,1.4,48.5,M,19.4,M,5.4,0129*78
3255299 $GPRMC,085433.40,A,3510.72008695,N,12654.68181500,E,7.94,56.07,280518,,,D*69
3255300 $GPGGA,085433.50,3510.72021265,N,12654.68203501,E,2,07,1.4,48.5,M,19.4,M,5.5,0129*7F
3255398 $GPRMC,085433.50,A,3510.72021265,N,12654.68203501,E,8.02,59.02,280518,,,D*6A
3255398 $GPGGA,085433.60,3510.72034082,N,12654.68225036,E,2,07,1.6,48.5,M,19.4,M,5.6,0129*77
3255498 $GPRMC,085433.60,A,3510.72034082,N,12654.68225036,E,7.97,52.32,280518,,,D*68
3255499 $GPGGA,085433.70,3510.72046725,N,12654.68246079,E,2,07,1.6,48.5,M,19.4,M,5.7,0129*76
3255599 $GPRMC,085433.70,A,3510.72046725,N,12654.68246079,E,7.90,51.91,280518,,,D*65
3255600 $GPGGA,085433.80,3510.72060552,N,12654.68266564,E,2,07,1.6,48.5,M,19.4,M,5.8,0129*7B
3255698 $GPRMC,085433.80,A,3510.72060552,N,12654.68266564,E,7.73,51.15,280518,,,D*66
3255698 $GPGGA,085433.90,3510.72074160,N,12654.68286051,E,2,07,1.6,48.5,M,19.4,M,5.9,0129*76
3255798 $GPRMC,085433.90,A,3510.72074160,N,12654.68286051,E,7.45,52.56,280518,,,D*6B
3255799 $GPGGA,085434.00,3510.72087325,N,12654.68305125,E,2,07,1.6,48.5,M,19.4,M,6.0,0129*75
3255897 $GPRMC,085434.00,A,3510.72087325,N,12654.68305125,E,7.45,48.75,280518,,,D*68
3255997 $GPGGA,085434.10,3510.72101525,N,12654.68323451,E,2,07,1.6,48.5,M,19.4,M,6.1,0129*7E
3255997 $GPRMC,085434.10,A,3510.72101525,N,12654.68323451,E,7.56,42.40,280518,,,D*6C
3255998 $GPGGA,085434.20,3510.72116087,N,12654.68340440,E,2,07,1.6,48.5,M,19.4,M,6.2,0129*70
3256098 $GPRMC,085434.20,A,3510.72116087,N,12654.68340440,E,7.26,44.60,280518,,,D*62
3256099 $GPGGA,085434.30,3510.72130931,N,12654.68357333,E,2,07,1.6,48.5,M,19.4,M,6.3,0129*75
3256198 $GPRMC,085434.30,A,3510.72130931,N,12654.68357333,E,7.24,43.58,280518,,,D*68
3256297 $GPGGA,085434.40,3510.72146077,N,12654.68373689,E,2,07,1.6,48.5,M,19.4,M,6.4,0129*7D
3256297 $GPRMC,085434.40,A,3510.72146077,N,12654.68373689,E,7.33,40.10,280518,,,D*6E
3256298 $GPGGA,085434.50,3510.72161360,N,12654.68389878,E,2,07,1.6,48.5,M,19.4,M,6.5,0129*78
3256398 $GPRMC,085434.50,A,3510.72161360,N,12654.68389878,E,7.18,40.16,280518,,,D*65
3256399 $GPGGA,085434.60,3510.72176780,N,12654.68404489,E,2,07,1.6,48.6,M,19.4,M,6.6,0129*77
3256498 $GPRMC,085434.60,A,3510.72176780,N,12654.68404489,E,7.14,34.00,280518,,,D*62
3256599 $GPGGA,085434.70,3510.72193519,N,12654.68417880,E,2,07,1.6,48.6,M,19.4,M,6.7,0129*79
3256599 $GPRMC,085434.70,A,3510.72193519,N,12654.68417880,E,7.30,30.69,280518,,,D*60
3256600 $GPGGA,085434.80,3510.72209755,N,12654.68430710,E,2,07,1.6,48.6,M,19.4,M,6.8,0129*70
3256697 $GPRMC,085434.80,A,3510.72209755,N,12654.68430710,E,6.80,33.87,280518,,,D*6F
3256698 $GPGGA,085434.90,3510.72225941,N,12654.68443412,E,2,07,1.6,48.6,M,19.4,M,6.9,0129*70
3256798 $GPRMC,085434.90,A,3510.72225941,N,12654.68443412,E,6.77,39.47,280518,,,D*60
3256798 $GPGGA,085435.00,3510.72241671,N,12654.68456710,E,2,07,1.6,48.6,M,19.4,M,7.0,0129*7B
3256878 $GPRMC,085435.00,A,3510.72241671,N,12654.68456710,E,7.03,31.67,280518,,,D*6B
3256899 $GPGGA,085435.10,3510.72257819,N,12654.68468355,E,2,08,1.6,48.6,M,19.4,M,7.1,0129*7B
3256999 $GPRMC,085435.10,A,3510.72257819,N,12654.68468355,E,6.58,28.57,280518,,,D*61
3257100 $GPGGA,085435.20,3510.72274971,N,12654.68478128,E,2,08,1.4,48.6,M,19.4,M,7.2,0129*7E
3257100 $GPRMC,085435.20,A,3510.72274971,N,12654.68478128,E,6.98,22.60,280518,,,D*67
3257101 $GPGGA,085435.30,3510.72293531,N,12654.68487557,E,2,08,1.4,48.6,M,19.4,M,7.3,0129*73
3257200 $GPRMC,085435.30,A,3510.72293531,N,12654.68487557,E,6.91,22.90,280518,,,D*6D
3257201 $GPGGA,085435.40,3510.72311500,N,12654.68495800,E,2,08,1.4,48.6,M,19.4,M,7.4,0129*76
3257299 $GPRMC,085435.40,A,3510.72311500,N,12654.68495800,E,6.93,24.34,280518,,,D*65
3257399 $GPGGA,085435.50,3510.72329520,N,12654.68504733,E,2,08,1.4,48.6,M,19.4,M,7.5,0129*79
3257399 $GPRMC,085435.50,A,3510.72329520,N,12654.68504733,E,7.18,20.19,280518,,,D*62
3257400 $GPGGA,085435.60,3510.72348039,N,12654.68513149,E,2,08,1.4,48.6,M,19.4,M,6.6,0129*7F
3257499 $GPRMC,085435.60,A,3510.72348039,N,12654.68513149,E,7.17,18.14,280518,,,D*6F
3257500 $GPGGA,085435.70,3510.72367298,N,12654.68521164,E,2,08,1.4,48.7,M,19.4,M,6.7,0129*74
3257599 $GPRMC,085435.70,A,3510.72367298,N,12654.68521164,E,6.87,20.80,280518,,,D*6A
3257699 $GPGGA,085435.80,3510.72385391,N,12654.68529382,E,2,08,1.4,48.7,M,19.4,M,6.8,0129*72
3257699 $GPRMC,085435.80,A,3510.72385391,N,12654.68529382,E,6.55,24.53,280518,,,D*66
3257700 $GPGGA,085435.90,3510.72403718,N,12654.68537243,E,2,08,1.4,48.7,M,19.4,M,6.9,0129*7D
3257799 $GPRMC,085435.90,A,3510.72403718,N,12654.68537243,E,7.32,13.65,280518,,,D*69
3257800 $GPGGA,085436.00,3510.72422764,N,12654.68543232,E,2,08,1.4,48.7,M,19.4,M,7.0,0129*72
3257900 $GPRMC,085436.00,A,3510.72422764,N,12654.68543232,E,6.51,15.03,280518,,,D*6C
3257900 $GPGGA,085436.10,3510.72441646,N,12654.68548238,E,2,08,1.4,48.8,M,19.4,M,7.1,0129*78
3258000 $GPRMC,085436.10,A,3510.72441646,N,12654.68548238,E,7.35,10.89,280518,,,D*6C
3258001 $GPGGA,085436.20,3510.72461105,N,12654.68552637,E,2,08,1.4,48.8,M,19.4,M,7.2,0129*7A
3258099 $GPRMC,085436.20,A,3510.72461105,N,12654.68552637,E,6.89,14.89,280518,,,D*6F
3258100 $GPGGA,085436.30,3510.72480684,N,12654.68556535,E,2,08,1.4,48.8,M,19.4,M,7.3,0129*7E
3258199 $GPRMC,085436.30,A,3510.72480684,N,12654.68556535,E,7.20,12.03,280518,,,D*6C
3258199 $GPGGA,085436.40,3510.72500623,N,12654.68561067,E,2,08,1.4,48.8,M,19.4,M,7.4,0129*7C
3258300 $GPRMC,085436.40,A,3510.72500623,N,12654.68561067,E,6.75,4.71,280518,,,D*5A
3258301 $GPGGA,085436.50,3510.72519952,N,12654.68562766,E,2,08,1.4,48.8,M,19.4,M,7.5,0129*78
3258399 $GPRMC,085436.50,A,3510.72519952,N,12654.68562766,E,7.62,3.62,280518,,,D*5D
3258499 $GPGGA,085436.60,3510.72540034,N,12654.68563945,E,2,08,1.4,48.8,M,19.4,M,6.6,0129*72
3258499 $GPRMC,085436.60,A,3510.72540034,N,12654.68563945,E,6.56,3.47,280518,,,D*54
3258500 $GPGGA,085436.70,3510.72559480,N,12654.68564890,E,2,08,1.4,48.8,M,19.4,M,6.7,0129*7F
3258600 $GPRMC,085436.70,A,3510.72559480,N,12654.68564890,E,7.41,359.80,280518,,,D*58
3258601 $GPGGA,085436.80,3510.72578372,N,12654.68564792,E,2,08,1.4,48.8,M,19.4,M,6.8,0129*7B
3258699 $GPRMC,085436.80,A,3510.72578372,N,12654.68564792,E,6.70,0.72,280518,,,D*52
3258779 $GPGGA,085436.90,3510.72597366,N,12654.68564733,E,2,08,1.4,48.8,M,19.4,M,6.9,0129*74
3258779 $GPRMC,085436.90,A,3510.72597366,N,12654.68564733,E,7.23,359.89,280518,,,D*50
3258801 $GPGGA,085437.00,3510.72618060,N,12654.68564419,E,2,08,1.4,48.8,M,19.4,M,7.0,0129*7E
3258899 $GPRMC,085437.00,A,3510.72618060,N,12654.68564419,E,7.25,359.98,280518,,,D*54
3258901 $GPGGA,085437.10,3510.72638080,N,12654.68563818,E,2,08,1.4,48.8,M,19.4,M,7.1,0129*78
3258999 $GPRMC,085437.10,A,3510.72638080,N,12654.68563818,E,7.43,359.14,280518,,,D*57
3259099 $GPGGA,085437.20,3510.72659226,N,12654.68562400,E,2,08,1.4,48.8,M,19.4,M,7.2,0129*75
3259099 $GPRMC,085437.20,A,3510.72659226,N,12654.68562400,E,7.16,357.54,280518,,,D*53
3259100 $GPGGA,085437.30,3510.72677941,N,12654.68559520,E,2,08,1.4,48.8,M,19.4,M,7.3,0129*78
3259199 $GPRMC,085437.30,A,3510.72677941,N,12654.68559520,E,7.28,353.42,280518,,,D*51
3259200 $GPGGA,085437.40,3510.72698714,N,12654.68555159,E,2,08,1.4,48.8,M,19.4,M,7.4,0129*71
3259298 $GPRMC,085437.40,A,3510.72698714,N,12654.68555159,E,7.34,350.89,280518,,,D*56
3259298 $GPGGA,085437.50,3510.72719720,N,12654.68550886,E,2,08,1.4,48.8,M,19.4,M,7.5,0129*70
3259399 $GPRMC,085437.50,A,3510.72719720,N,12654.68550886,E,7.34,352.40,280518,,,D*51
3259400 $GPGGA,085437.60,3510.72739642,N,12654.68547137,E,2,08,1.4,48.8,M,19.4,M,3.6,0129*76
3259499 $GPRMC,085437.60,A,3510.72739642,N,12654.68547137,E,7.27,349.19,280518,,,D*54
3259500 $GPGGA,085437.70,3510.72760685,N,12654.68542746,E,2,08,1.4,48.9,M,19.4,M,3.7,0129*75
3259599 $GPRMC,085437.70,A,3510.72760685,N,12654.68542746,E,7.63,348.60,280518,,,D*58
3259599 $GPGGA,085437.80,3510.72781050,N,12654.68537268,E,2,08,1.4,48.8,M,19.4,M,3.8,0129*7E
3259700 $GPRMC,085437.80,A,3510.72781050,N,12654.68537268,E,7.44,347.93,280518,,,D*5B
3259701 $GPGGA,085437.90,3510.72801762,N,12654.68531487,E,2,08,1.4,48.9,M,19.4,M,3.9,0129*7F
3259799 $GPRMC,085437.90,A,3510.72801762,N,12654.68531487,E,7.50,346.83,280518,,,D*5F
3259800 $GPGGA,085438.00,3510.72821811,N,12654.68525130,E,2,08,1.4,48.9,M,19.4,M,4.0,0129*72
3259800 $GPRMC,085438.00,A,3510.72821811,N,12654.68525130,E,7.73,343.44,280518,,,D*53
3259899 $GPGGA,085438.10,3510.72842691,N,12654.68517125,E,2,08,1.4,48.9,M,19.4,M,4.1,0129*74
3260000 $GPRMC,085438.10,A,3510.72842691,N,12654.68517125,E,7.44,345.37,280518,,,D*52
3260001 $GPGGA,085438.20,3510.72863766,N,12654.68509884,E,2,08,1.4,48.9,M,19.4,M,4.2,0129*73
3260099 $GPRMC,085438.20,A,3510.72863766,N,12654.68509884,E,7.48,342.71,280518,,,D*5F
3260199 $GPGGA,085438.30,3510.72884201,N,12654.68502109,E,2,08,1.4,48.9,M,19.4,M,4.3,0129*79
3260199 $GPRMC,085438.30,A,3510.72884201,N,12654.68502109,E,8.06,344.71,280518,,,D*57
3260200 $GPGGA,085438.40,3510.72905512,N,12654.68494730,E,2,08,1.4,48.9,M,19.4,M,4.4,0129*76
3260300 $GPRMC,085438.40,A,3510.72905512,N,12654.68494730,E,7.51,342.92,280518,,,D*59
3260301 $GPGGA,085438.50,3510.72925643,N,12654.68487173,E,2,08,1.4,48.9,M,19.4,M,4.5,0129*70
3260399 $GPRMC,085438.50,A,3510.72925643,N,12654.68487173,E,7.85,344.15,280518,,,D*5E
3260499 $GPGGA,085438.60,3510.72946657,N,12654.68479567,E,2,08,1.4,49.0,M,19.4,M,4.6,0129*78
3260499 $GPRMC,085438.60,A,3510.72946657,N,12654.68479567,E,7.53,340.07,280518,,,D*51
3260500 $GPGGA,085438.70,3510.72966494,N,12654.68470688,E,2,08,1.4,49.0,M,19.4,M,4.7,0129*7C
3260598 $GPRMC,085438.70,A,3510.72966494,N,12654.68470688,E,7.84,339.70,280518,,,D*50
3260599 $GPGGA,085438.80,3510.72986886,N,12654.68461523,E,2,08,1.4,49.0,M,19.4,M,4.8,0129*7F
3260699 $GPRMC,085438.80,A,3510.72986886,N,12654.68461523,E,7.63,338.08,280518,,,D*5B
3260800 $GPGGA,085438.90,3510.73006962,N,12654.68451296,E,2,08,1.4,49.0,M,19.4,M,4.9,0129*7E
3260800 $GPRMC,085438.90,A,3510.73006962,N,12654.68451296,E,8.20,338.62,280518,,,D*5F
3260801 $GPGGA,085439.00,3510.73027901,N,12654.68440276,E,2,08,1.4,49.0,M,19.4,M,5.0,0129*76
3260900 $GPRMC,085439.00,A,3510.73027901,N,12654.68440276,E,8.34,340.27,280518,,,D*54
3260901 $GPGGA,085439.10,3510.73050554,N,12654.68430775,E,2,08,1.4,49.0,M,19.4,M,5.1,0129*7B
3260998 $GPRMC,085439.10,A,3510.73050554,N,12654.68430775,E,8.08,341.62,280518,,,D*57
3261098 $GPGGA,085439.20,3510.73071687,N,12654.68421659,E,2,08,1.4,49.0,M,19.4,M,5.2,0129*7A
3261098 $GPRMC,085439.20,A,3510.73071687,N,12654.68421659,E,8.26,340.26,280518,,,D*58
3261099 $GPGGA,085439.30,3510.73093337,N,12654.68411175,E,2,08,1.4,49.0,M,19.4,M,5.3,0129*72
3261199 $GPRMC,085439.30,A,3510.73093337,N,12654.68411175,E,8.47,337.09,280518,,,D*5B
3261200 $GPGGA,085439.40,3510.73115621,N,12654.68400198,E,2,08,1.4,49.1,M,19.4,M,5.4,0129*7D
3261299 $GPRMC,085439.40,A,3510.73115621,N,12654.68400198,E,8.21,337.76,280518,,,D*5A
3261299 $GPGGA,085439.50,3510.73137046,N,12654.68389162,E,2,08,1.4,49.1,M,19.4,M,5.5,0129*79
3261400 $GPRMC,085439.50,A,3510.73137046,N,12654.68389162,E,8.39,337.75,280518,,,D*55
3261401 $GPGGA,085439.60,3510.73158350,N,12654.68378157,E,2,08,1.4,49.0,M,19.4,M,5.6,0129*7D
3261499 $GPRMC,085439.60,A,3510.73158350,N,12654.68378157,E,8.36,337.39,280518,,,D*54
3261500 $GPGGA,085439.70,3510.73179864,N,12654.68366484,E,2,08,1.4,49.0,M,19.4,M,5.7,0129*76
3261599 $GPRMC,085439.70,A,3510.73179864,N,12654.68366484,E,8.41,337.72,280518,,,D*51
3261599 $GPGGA,085439.80,3510.73201214,N,12654.68355592,E,2,08,1.4,49.0,M,19.4,M,5.8,0129*71
3261700 $GPRMC,085439.80,A,3510.73201214,N,12654.68355592,E,8.52,337.64,280518,,,D*5C
3261701 $GPGGA,085439.90,3510.73223574,N,12654.68344740,E,2,08,1.4,49.0,M,19.4,M,5.9,0129*7D
3261799 $GPRMC,085439.90,A,3510.73223574,N,12654.68344740,E,8.05,340.16,280518,,,D*56
3261800 $GPGGA,085440.00,3510.73246396,N,12654.68334311,E,2,08,1.4,49.1,M,19.4,M,6.0,0129*7F
3261800 $GPRMC,085440.00,A,3510.73246396,N,12654.68334311,E,9.09,339.27,280518,,,D*5E
3261899 $GPGGA,085440.10,3510.73269983,N,12654.68323158,E,2,08,1.4,49.1,M,19.4,M,6.1,0129*75
3261999 $GPRMC,085440.10,A,3510.73269983,N,12654.68323158,E,8.85,336.80,280518,,,D*52
3262000 $GPGGA,085440.20,3510.73292995,N,12654.68311958,E,2,08,1.4,49.1,M,19.4,M,6.2,0129*7F
3262100 $GPRMC,085440.20,A,3510.73292995,N,12654.68311958,E,9.10,339.89,280518,,,D*50
3262200 $GPGGA,085440.30,3510.73315198,N,12654.68300662,E,2,08,1.4,49.1,M,19.4,M,6.3,0129*72
3262200 $GPRMC,085440.30,A,3510.73315198,N,12654.68300662,E,8.81,337.73,280518,,,D*5E
3262201 $GPGGA,085440.40,3510.73338717,N,12654.68289778,E,2,08,1.4,49.1,M,19.4,M,6.4,0129*76
3262298 $GPRMC,085440.40,A,3510.73338717,N,12654.68289778,E,8.19,338.69,280518,,,D*58
3262299 $GPGGA,085440.50,3510.73361257,N,12654.68278681,E,2,08,1.4,49.2,M,19.4,M,6.5,0129*71
3262398 $GPRMC,085440.50,A,3510.73361257,N,12654.68278681,E,8.66,339.07,280518,,,D*5C
3262498 $GPGGA,085440.60,3510.73383867,N,12654.68266860,E,2,08,1.4,49.2,M,19.4,M,6.6,0129*7A
3262498 $GPRMC,085440.60,A,3510.73383867,N,12654.68266860,E,9.04,339.38,280518,,,D*5D
3262499 $GPGGA,085440.70,3510.73407209,N,12654.68255763,E,2,08,1.4,49.1,M,19.4,M,6.7,0129*7C
3262579 $GPRMC,085440.70,A,3510.73407209,N,12654.68255763,E,8.72,336.17,280518,,,D*5B
3262600 $GPGGA,085440.80,3510.73428486,N,12654.68242597,E,2,08,1.4,49.1,M,19.4,M,6.8,0129*7F
3262700 $GPRMC,085440.80,A,3510.73428486,N,12654.68242597,E,9.28,332.88,280518,,,D*5B
3262799 $GPGGA,085440.90,3510.73452069,N,12654.68228966,E,2,08,1.4,49.1,M,19.4,M,6.9,0129*79
3262799 $GPRMC,085440.90,A,3510.73452069,N,12654.68228966,E,8.83,336.83,280518,,,D*53
